{
    "type": "FeatureCollection",
    "features": [
        {
            "type": "Feature",
            "geometry": {
                "type": "Point",
                "coordinates": [
                    105.8133656,
                    21.015256
                ]
            },
            "properties": {
                "Address": "Capital Garden Hotel, 4, Hoàng Ngọc Phách, Quận Đống Đa",
                "name": "Anytime BBQ & Bar"
            }
        },
        {
            "type": "Feature",
            "geometry": {
                "type": "Point",
                "coordinates": [
                    105.8187898,
                    21.0225943
                ]
            },
            "properties": {
                "Address": "2 Láng Hạ",
                "name": "New Sphinx Beer Bar"
            }
        },
        {
            "type": "Feature",
            "geometry": {
                "type": "Point",
                "coordinates": [
                    105.8238382,
                    21.0083911
                ]
            },
            "properties": {
                "Address": "Đường Tây Sơn",
                "name": "Karaoke LaLiGa"
            }
        },
        {
            "type": "Feature",
            "geometry": {
                "type": "Point",
                "coordinates": [
                    105.8182998,
                    21.0104887
                ]
            },
            "properties": {
                "Address": "81 Thái Thịnh",
                "name": "Karaoke 81"
            }
        },
        {
            "type": "Feature",
            "geometry": {
                "type": "Point",
                "coordinates": [
                    105.8210261,
                    21.0192859
                ]
            },
            "properties": {
                "Address": "Số 9Hào Nam",
                "name": "Karaoke X9"
            }
        },
        {
            "type": "Feature",
            "geometry": {
                "type": "Point",
                "coordinates": [
                    105.8258968,
                    21.0217707
                ]
            },
            "properties": {
                "Address": "19 Hào Nam",
                "name": "Vip Club Karaoke"
            }
        },
        {
            "type": "Feature",
            "geometry": {
                "type": "Point",
                "coordinates": [
                    105.8186093,
                    21.0112852
                ]
            },
            "properties": {
                "Address": "104AE3 Thái Thịnh",
                "name": "Karaoke New King Club"
            }
        },
        {
            "type": "Feature",
            "geometry": {
                "type": "Point",
                "coordinates": [
                    105.8293743,
                    21.0120423
                ]
            },
            "properties": {
                "Address": "83 Hồ Đắc Di",
                "name": "Honey Karaoke"
            }
        },
        {
            "type": "Feature",
            "geometry": {
                "type": "Point",
                "coordinates": [
                    105.818401,
                    21.0104487
                ]
            },
            "properties": {
                "Address": "79 Thái Thịnh",
                "name": "Karaoke Hương Giang Hà Nội"
            }
        },
        {
            "type": "Feature",
            "geometry": {
                "type": "Point",
                "coordinates": [
                    105.83141,
                    21.017654
                ]
            },
            "properties": {
                "Address": "30 Đường La Thành",
                "name": "Regal"
            }
        },
        {
            "type": "Feature",
            "geometry": {
                "type": "Point",
                "coordinates": [
                    105.8193249,
                    21.0093438
                ]
            },
            "properties": {
                "Address": "59 Thái Thịnh",
                "name": "Z-Club Karaoke"
            }
        },
        {
            "type": "Feature",
            "geometry": {
                "type": "Point",
                "coordinates": [
                    105.8186227,
                    21.0099854
                ]
            },
            "properties": {
                "Address": "65-67 thái thịnh, Thái Thịnh",
                "name": "karaoke MaGic City 65-67"
            }
        },
        {
            "type": "Feature",
            "geometry": {
                "type": "Point",
                "coordinates": [
                    105.8213914,
                    21.0071954
                ]
            },
            "properties": {
                "Address": "96, Thái Thịnh, Quận Đống Đa",
                "name": "Karaoke 5 Star Club"
            }
        },
        {
            "type": "Feature",
            "geometry": {
                "type": "Point",
                "coordinates": [
                    105.8275705,
                    21.0209395
                ]
            },
            "properties": {
                "Address": "180 Đê la Thành",
                "name": "Karaoke King Club"
            }
        },
        {
            "type": "Feature",
            "geometry": {
                "type": "Point",
                "coordinates": [
                    105.8137993,
                    21.0154613
                ]
            },
            "properties": {
                "Address": "11, Lane 81, Lang Hamlet Ward, Dong Da District",
                "name": "Bin Bo Karaoke"
            }
        },
        {
            "type": "Feature",
            "geometry": {
                "type": "Point",
                "coordinates": [
                    105.8181024,
                    21.0109745
                ]
            },
            "properties": {
                "Address": "p1e2 Thái Thịnh",
                "name": "Vina Karaoke"
            }
        },
        {
            "type": "Feature",
            "geometry": {
                "type": "Point",
                "coordinates": [
                    105.8181599,
                    21.0109231
                ]
            },
            "properties": {
                "Address": "112 Thái Thịnh",
                "name": "Karaoke Phương Anh"
            }
        },
        {
            "type": "Feature",
            "geometry": {
                "type": "Point",
                "coordinates": [
                    105.8215437,
                    21.0117044
                ]
            },
            "properties": {
                "Address": "2 Thái Hà",
                "name": "Karaoke Hoàng Gia"
            }
        },
        {
            "type": "Feature",
            "geometry": {
                "type": "Point",
                "coordinates": [
                    105.815286,
                    21.0098577
                ]
            },
            "properties": {
                "Address": "84 Thái Thịnh 2",
                "name": "Karaoke Gia Đình"
            }
        },
        {
            "type": "Feature",
            "geometry": {
                "type": "Point",
                "coordinates": [
                    105.8292591,
                    21.0192063
                ]
            },
            "properties": {
                "Address": "29 Đường La Thành",
                "name": "McQueen Karaoke"
            }
        }
    ]
}